NAME,Neighbourhood ID,Neighbourhood Name,LATITUDE,LONGITUDE,LOCATION
Charles Simmonds Park,5290,McKernan,53.515582,-113.531032,"(53.5155304884383, -113.5310040252186)"
High Park Community League Playground,4200,High Park,53.557300,-113.588494,"(53.55733656978511, -113.58855023447305)"
Maude Belle Park,6360,King Edward Park,53.513822,-113.441141,"(53.51380927041953, -113.44128232254008)"
St. Benedict School,4040,Belmead,53.526026,-113.634670,"(53.52592668309369, -113.63475528579211)"
Fulton PIace School,6240,Fulton Place,53.545365,-113.425499,"(53.54527973423801, -113.42548640967863)"
Gabrielle Roy School,6710,Strathearn,53.530178,-113.461940,"(53.53004255075588, -113.46201192707227)"
Balwin,2020,Balwin,53.591570,-113.449101,"(53.59147931677975, -113.44889537687578)"
Ralph Hopp Park,2020,Balwin,53.589379,-113.445525,"(53.589332317032984, -113.44566575523268)"
Granville Tot Lot,4551,Granville,53.507325,-113.679191,"(53.50735954514367, -113.67926645520461)"
Mother Teresa School,1020,Boyle Street,53.551993,-113.476072,"(53.55196859770456, -113.47606100765422)"
Duggan School,5160,Duggan,53.472311,-113.506031,"(53.47229181113546, -113.50591591407897)"
Prince Rupert School,1170,Prince Rupert,53.562130,-113.520023,"(53.562224500996805, -113.51979234543202)"
Walker Park,6662,Walker,53.414390,-113.436689,"(53.414277650184594, -113.4367314605484)"
King Edward Park,6360,King Edward Park,53.513596,-113.460794,"(53.51351491295979, -113.46074341988898)"
MacEwan,5452,MacEwan,53.429454,-113.530366,"(53.429432521113085, -113.53058112959656)"
Rundle Park,2650,River Valley Rundle,53.555114,-113.386152,"(53.55511422305574, -113.38624219675614)"
Belmead Park,4040,Belmead,53.525775,-113.636118,"(53.52585255204208, -113.63596645216612)"
Rosslyn Playground,3390,Rosslyn,53.594002,-113.512077,"(53.594053338409914, -113.51223064137682)"
Mt. Royal Sch,2330,Highlands,53.568424,-113.425072,"(53.56830075325048, -113.42493466543127)"
St Catherine,1180,Queen Mary Park,53.556163,-113.508946,"(53.55603992115013, -113.50905736031562)"
Eastwood Community League,1100,Eastwood,53.571207,-113.472379,"(53.57118719763599, -113.4722640197001)"
Silver Heights Park,6710,Strathearn,53.532780,-113.464483,"(53.532827503702066, -113.46446968830254)"
Father Lacombe,3260,Lauderdale,53.590790,-113.506355,"(53.590867350946255, -113.50607833797656)"
Calder School Playground,3070,Calder,53.588682,-113.526451,"(53.588729027371535, -113.5262969058033)"
Rutherford Park,5454,Rutherford,53.420042,-113.534372,"(53.42007612843531, -113.53442830999927)"
Kinsmen Park Junior,5390,River Valley Walterdale,53.526560,-113.508763,"(53.52658532703501, -113.5089026047799)"
Sister Annata Brockman,4461,The Hamptons,53.489989,-113.683470,"(53.48999312061813, -113.68353558775021)"
Lorelei Playground,3280,Lorelei,53.623141,-113.501684,"(53.623077462213374, -113.50160814744854)"
Kinsmen Park Senior,5390,River Valley Walterdale,53.526756,-113.508922,"(53.52675660299677, -113.50884170440895)"
Westridge Playground,4610,Westridge,53.506306,-113.605823,"(53.506346745589056, -113.60551813489333)"
Eastwood Community League,1100,Eastwood,53.570897,-113.472037,"(53.57095009926884, -113.47214243693512)"
Greenfield Community League,5220,Greenfield,53.473386,-113.525997,"(53.47336988873473, -113.52586108319016)"
Charles Simmonds Park,5290,McKernan,53.515266,-113.530939,"(53.51528199193906, -113.53089167486843)"
Kirkness School/Park,2430,Kirkness,53.611877,-113.385388,"(53.612011710443326, -113.38512536514006)"
Westglen,3440,Westmount,53.554950,-113.542522,"(53.55497002745571, -113.54248585198815)"
High Park School Playground,4200,High Park,53.556122,-113.586733,"(53.55626136965184, -113.58658825499714)"
,5454,Rutherford,53.420081,-113.535351,"(53.420154071392886, -113.53556741474338)"
St Pius X,3410,Sherbrooke,53.577433,-113.543997,"(53.57736006377106, -113.54399188686861)"
Ozerna Park,2600,Ozerna,53.620746,-113.448659,"(53.62077783204755, -113.44854779295088)"
McKee School,5170,Empire Park,53.487460,-113.509933,"(53.487360583428696, -113.50990543329098)"
Terwillegar Town Residents Assoc Playground,5640,Terwillegar Towne,53.453605,-113.584980,"(53.45352920268614, -113.58489025569921)"
Prince Charles Playground,3350,Prince Charles,53.574622,-113.537437,"(53.574538848653575, -113.53720208935518)"
Suder Greens,4730,Suder Greens,53.520937,-113.684548,"(53.52092748855026, -113.68452018039511)"
Mary Finlay Park,6230,Forest Heights,53.543464,-113.451607,"(53.5434747895967, -113.4515104708552)"
Haddow Park,5610,Haddow,53.453495,-113.597003,"(53.45365452587647, -113.59706451953079)"
Violet Archer Park,5310,Parkallen,53.506780,-113.513454,"(53.50685266452384, -113.51345121988587)"
Kilkenny Park/CL Barnett School,2410,Kilkenny,53.610053,-113.450794,"(53.61002841676212, -113.45069145491763)"
Parkallen,5310,Parkallen,53.503661,-113.518979,"(53.50367938124248, -113.51887442476823)"
St. Faith Tot Lot,1010,Alberta Avenue,53.569281,-113.483122,"(53.5693481276746, -113.4831632626682)"
Kinsmen Park Senior,5390,River Valley Walterdale,53.527155,-113.509300,"(53.527128039905094, -113.50929864267835)"
McQueen Playground,3300,McQueen,53.555704,-113.570655,"(53.55565634805145, -113.57088405738247)"
Mill Creek,6610,Ritchie,53.515696,-113.480801,"(53.51584101908051, -113.48059735783104)"
Kirkness School/Park,2430,Kirkness,53.611715,-113.385088,"(53.61174731026194, -113.38492653133221)"
Kinsmen Park Senior,5390,River Valley Walterdale,53.527071,-113.508490,"(53.527072924909376, -113.50855726241194)"
Windermere Park,5570,Windermere,53.427292,-113.622304,"(53.42739709292967, -113.62229031194184)"
Chappelle Park,5462,Chappelle Area,53.399405,-113.572084,"(53.39933306997709, -113.57186551458997)"
Dechene Playground,4110,Dechene,53.491429,-113.637013,"(53.491305166897206, -113.63696154030333)"
Mcleod Park,2530,McLeod,53.609659,-113.430920,"(53.60958990714867, -113.43126016412859)"
Lauderdale Playground,3260,Lauderdale,53.588642,-113.503331,"(53.58870306853201, -113.50330200922556)"
Castle Downs Park,3180,Dunluce,53.616831,-113.525533,"(53.616786408418825, -113.52545276187605)"
Coronation,3310,North Glenora,53.555334,-113.560621,"(53.5554363641336, -113.5605197255409)"
Sacred Heart School,1140,McCauley,53.554548,-113.486563,"(53.55459606536529, -113.48683502376585)"
Pleasantview Sch,5320,Pleasantview,53.494989,-113.504170,"(53.494922534317574, -113.50398909434236)"
Steinhauer School,5470,Steinhauer,53.464668,-113.504646,"(53.46451178899272, -113.50458982089937)"
Monsignor Walter Fitzgerald Playground,4270,Lymburn,53.505338,-113.635276,"(53.505427266717625, -113.6351332813297)"
Chappelle Rope Climber,5462,Chappelle Area,53.404037,-113.569974,"(53.40397076311171, -113.57000995341537)"
Jackson Heights Park,6330,Jackson Heights,53.483365,-113.407638,"(53.48325659245543, -113.40767673447169)"
Woodcroft Tot Lot,3450,Woodcroft,53.567797,-113.555859,"(53.56774328424804, -113.55585478696716)"
Bonnie Doon Park,6040,Bonnie Doon,53.527389,-113.470266,"(53.52750865970828, -113.47029080882538)"
Abbott School,2010,Abbottsfield,53.574913,-113.392086,"(53.57477790966841, -113.39199321406531)"
Sheriff Robertson Park,1190,River Valley Kinnaird,53.559169,-113.466366,"(53.55909632451777, -113.4663523536835)"
Miller Park,2541,Miller,53.612813,-113.416087,"(53.612752013704025, -113.41597831262958)"
Highlands Playground,2330,Highlands,53.566695,-113.433369,"(53.56659219504195, -113.43350898212275)"
Allendale School,5010,Allendale,53.500923,-113.502801,"(53.50092223324022, -113.5027186435588)"
Rossdale,1220,Rossdale,53.530764,-113.491297,"(53.530620880436786, -113.49147121114504)"
Glenora Playground,3200,Glenora,53.546365,-113.557095,"(53.54647347516695, -113.5569368331547)"
Allin Park,4180,Glenwood,53.532628,-113.595778,"(53.53256206572379, -113.59562092131716)"
,3430,Wellington,53.596765,-113.560055,"(53.596759005048916, -113.55998106930103)"
Garneau School West,5200,Garneau,53.522187,-113.514041,"(53.52212743223131, -113.51410748894858)"
Nu-west Park,6460,Meyokumin,53.451684,-113.423905,"(53.45163300455957, -113.42378645920924)"
Sifton School Park,2710,Sifton Park,53.594124,-113.409379,"(53.59413867589751, -113.40957088819673)"
Grad's Park Playground,3440,Westmount,53.555866,-113.531347,"(53.5557905114057, -113.53134740954206)"
Sifton Park Elementary School,2710,Sifton Park,53.594097,-113.407540,"(53.594033499730145, -113.40742854747148)"
Grandin School,1150,Oliver,53.536991,-113.511658,"(53.53706964793642, -113.51157334972116)"
Leger School,5630,Leger,53.459180,-113.576806,"(53.45925580992677, -113.57672363216783)"
Nor'wester Athletic Association Playground,6661,Charlesworth,53.425795,-113.409596,"(53.425719081979125, -113.40949924015793)"
Wedgewood Heights Playground,4570,Wedgewood Heights,53.480151,-113.647152,"(53.48015185003072, -113.647296045161)"
Ormsby,4380,Ormsby Place,53.498892,-113.639234,"(53.49883427871977, -113.63905380904791)"
Edmonton Chris,3300,McQueen,53.556069,-113.567873,"(53.55598538952886, -113.56804166985556)"
Granite Park,5200,Garneau,53.522522,-113.507642,"(53.522555823529785, -113.50770832706745)"
St. Dominic School,2530,McLeod,53.605891,-113.433586,"(53.60593127741181, -113.43376886666081)"
Duggan Community League Playground,5160,Duggan,53.473300,-113.506321,"(53.473121171377905, -113.5062169895015)"
Gold Bar Community League,6270,Gold Bar,53.548586,-113.413600,"(53.548685398920895, -113.41335429268815)"
Caernarvon Tot Lot A,3060,Caernarvon,53.608620,-113.532915,"(53.60858363544047, -113.5328746161336)"
Gold Bar Sch,6270,Gold Bar,53.549982,-113.413724,"(53.54991620463897, -113.41376700988567)"
Ecole Notre Dame,4230,Jasper Park,53.523888,-113.588069,"(53.52381401498833, -113.58797069000346)"
Homesteader Community League,2350,Homesteader,53.586407,-113.408428,"(53.58651975245424, -113.4081765408068)"
Pollard Meadows School,6580,Pollard Meadows,53.448005,-113.412261,"(53.44800002474881, -113.41240895368162)"
Kittlitz Park,6790,Wild Rose,53.469941,-113.385028,"(53.46993709346665, -113.38510045930005)"
Kiniski Gardens School,6370,Kiniski Gardens,53.477801,-113.404161,"(53.47765038533106, -113.40403326851116)"
Evansdale School/Park,2260,Evansdale,53.610435,-113.482744,"(53.61054238831613, -113.48262123800598)"
Michaels Park,6480,Michaels Park,53.479537,-113.448299,"(53.47956394708951, -113.44803121654789)"
Windsor Park School,5580,Windsor Park,53.523613,-113.535521,"(53.523623574122425, -113.53572616079887)"
Rundle Park,2650,River Valley Rundle,53.555327,-113.386314,"(53.55532061449168, -113.38635931772737)"
Terrace Heights Park,6620,River Valley Gold Bar,53.543398,-113.433944,"(53.543609430286516, -113.43399930456692)"
Beaumaris Park,3040,Beaumaris,53.616707,-113.497670,"(53.61667642472777, -113.49777505290106)"
Elmwood Park Community League,1130,Elmwood Park,53.581589,-113.456687,"(53.58142954388093, -113.45644234507986)"
Delton Community League,1080,Delton,53.579721,-113.475626,"(53.57964273975844, -113.4757344739339)"
Patricia Heights Playground,4390,Patricia Heights,53.510791,-113.603623,"(53.510922486039256, -113.60393290287138)"
Alex Taylor,1020,Boyle Street,53.546858,-113.476602,"(53.54673102973911, -113.47647179157713)"
Beaumaris Park,3040,Beaumaris,53.616825,-113.497885,"(53.616714020941586, -113.49801952531844)"
Ambleside Rope Climber,5505,Ambleside,53.430087,-113.608888,"(53.43003273017854, -113.60896972872783)"
Mayliewan (St John Bosco School) Park,2511,Mayliewan,53.622247,-113.459056,"(53.62223554228757, -113.45897685014958)"
Day Care,5260,Lansdowne,53.487435,-113.545421,"(53.48738931218685, -113.54525053231787)"
Glenora Playground,3200,Glenora,53.546673,-113.556901,"(53.546593758174396, -113.55674884184903)"
Avonmore Park,6020,Avonmore,53.510070,-113.448024,"(53.51021077258169, -113.44815192314537)"
Charlesworth,6661,Charlesworth,53.429858,-113.431758,"(53.42974624588139, -113.43175086315091)"
Academy at King Edward,5480,Strathcona,53.521281,-113.489598,"(53.52127966241329, -113.48971347075518)"
Blackmud Park,5453,Blackmud Creek,53.420209,-113.512656,"(53.420209362614905, -113.51272961307572)"
St Stanislaus,5220,Greenfield,53.473987,-113.524706,"(53.4740931869665, -113.52454440539572)"
Calder School Playground,3070,Calder,53.589043,-113.526362,"(53.58898769705789, -113.52633173938437)"
Father L. Green,2410,Kilkenny,53.607908,-113.457418,"(53.607850074231294, -113.4572006789646)"
Laurier Heights Community Playground,3270,Laurier Heights,53.516495,-113.569721,"(53.51648089444389, -113.56945822622725)"
Garneau School West,5200,Garneau,53.522205,-113.514853,"(53.522167890931684, -113.51479066925569)"
Tipton Park,5330,Queen Alexandra,53.516334,-113.510176,"(53.51630595806985, -113.51003885612042)"
St. Alphonsus School,1160,Parkdale,53.568146,-113.466915,"(53.56808432471312, -113.46701786317136)"
King Edward Park,6360,King Edward Park,53.513566,-113.460368,"(53.51351356358552, -113.46021140221916)"
Wellington Park Playground,3430,Wellington,53.596586,-113.550727,"(53.59668629234089, -113.55072596780894)"
Blue Quill West,5070,Blue Quill Estates,53.456878,-113.539053,"(53.45685587687353, -113.53884294110401)"
Rutherford Park,5454,Rutherford,53.420256,-113.534758,"(53.420180994548716, -113.5346812688925)"
Laurel Park 3,6444,Laurel,53.441387,-113.388008,"(53.44143475327799, -113.38809900655849)"
Ormsby Playground,4380,Ormsby Place,53.497482,-113.636934,"(53.49738897828654, -113.63712352976987)"
Kilkenny Park/CL Barnett School,2410,Kilkenny,53.610445,-113.451307,"(53.6105060254111, -113.45121370485684)"
Zoie Gardner Park,2020,Balwin,53.585688,-113.450485,"(53.58569350495377, -113.45032588817526)"
Parkview,3330,Parkview,53.526005,-113.567652,"(53.52593152559366, -113.567554686736)"
Lorne Street Park,1010,Alberta Avenue,53.562921,-113.482378,"(53.56294502333051, -113.48219520892746)"
Hay Ridge Park,5465,Hays Ridge Area,53.416208,-113.572269,"(53.41615289571993, -113.57217559263307)"
Fort Edmonton Park,5401,River Valley Fort Edmonton,53.502156,-113.581330,"(53.50228665492894, -113.58145195078508)"
Charlesworth,6661,Charlesworth,53.429593,-113.431492,"(53.42950322075839, -113.43149336161305)"
Killarney Park,2420,Killarney,53.590590,-113.474969,"(53.59061832319456, -113.47484259813604)"
Sweetgrass School,5490,Sweet Grass,53.463028,-113.529017,"(53.46299668990039, -113.52913718541906)"
McKernan School,5290,McKernan,53.513815,-113.523301,"(53.51375722742797, -113.52323204451797)"
Paisley Park,5469,Paisley,53.414424,-113.559460,"(53.414424157904804, -113.5596037195368)"
Glengarry Park,2290,Glengarry,53.595823,-113.477331,"(53.59579741644875, -113.47701468469494)"
Empire Park Community League,5170,Empire Park,53.486174,-113.509241,"(53.486141819464436, -113.50913691852611)"
Westridge Playground,4610,Westridge,53.506260,-113.605273,"(53.50630983919051, -113.6052920887754)"
Giovanni Caboto,1140,McCauley,53.556321,-113.484079,"(53.556343602902025, -113.48404744597842)"
Garneau School East,5200,Garneau,53.522243,-113.512977,"(53.52215326046482, -113.51265383820646)"
Mayliewan (St John Bosco School) Park,2511,Mayliewan,53.622178,-113.459293,"(53.62223342508593, -113.45921729458921)"
Rosenthal,4750,Rosenthal,53.517437,-113.699203,"(53.51737335045545, -113.69916369701974)"
Forest Heights Park,6230,Forest Heights,53.551001,-113.445144,"(53.551079655878894, -113.44526006070441)"
,3140,Crestwood,53.534491,-113.570376,"(53.53443786500405, -113.57003735687023)"
Skyrattler School,5460,Skyrattler,53.450571,-113.524148,"(53.45060881676527, -113.52435493324388)"
Magrath Heights,5476,Magrath Heights,53.449599,-113.559665,"(53.44950801452607, -113.5596856324087)"
Bonnie Doon Park,6040,Bonnie Doon,53.527387,-113.470820,"(53.527385726947315, -113.47086513698477)"
Mayliewan (St John Bosco School) Park,2511,Mayliewan,53.622168,-113.459026,"(53.62208061716416, -113.4590499144494)"
Clara Tyner School,6550,Ottewell,53.530888,-113.436392,"(53.53094125601367, -113.43626771616483)"
McCauley School,1140,McCauley,53.553146,-113.484037,"(53.55307077159472, -113.48415738852273)"
Ambleside,5505,Ambleside,53.433096,-113.603972,"(53.43303319246181, -113.60394413237466)"
Miller Park,2541,Miller,53.612424,-113.416023,"(53.6125391924283, -113.41597041139235)"
Central McDougall,1030,Central McDougall,53.554789,-113.503686,"(53.55491750224256, -113.50380141842167)"
Rideau School,5360,Rideau Park,53.478023,-113.504651,"(53.477999212917524, -113.50461598524817)"
Glengarry Park,2290,Glengarry,53.595946,-113.476317,"(53.595863226613375, -113.47618084950463)"
Rideau School,5360,Rideau Park,53.478020,-113.504986,"(53.478006113335454, -113.50489333678496)"
Rutherford Sch,6040,Bonnie Doon,53.522639,-113.468451,"(53.52266958966403, -113.46856001293916)"
Brander Gardens Park,5080,Brander Gardens,53.493683,-113.575683,"(53.49361508361277, -113.57553286873622)"
Canora Park/Holy Cross School,4090,Canora,53.547344,-113.582532,"(53.54734686510147, -113.58219333981266)"
Parkdale Community League,1160,Parkdale,53.562986,-113.471429,"(53.56304141338172, -113.4713576089909)"
Kinsmen Park Senior,5390,River Valley Walterdale,53.526911,-113.509422,"(53.526864796750964, -113.50931741416494)"
St. Mary,5350,Rhatigan Ridge,53.475815,-113.586224,"(53.475826540931, -113.58637679151022)"
Jackie Parker Park,6500,Mill Woods Golf Course,53.483894,-113.421488,"(53.483961384199745, -113.42144987923388)"
Touchdown Playground,3070,Calder,53.587383,-113.537617,"(53.587306046443295, -113.53770695601088)"
St. Clements School,6200,Ekota,53.445930,-113.448454,"(53.44576625676361, -113.4483763598997)"
Michael Strembitsky,6213,Summerside,53.413626,-113.462356,"(53.41358891586823, -113.46244302039986)"
Sherbrooke Playground,3410,Sherbrooke,53.574873,-113.548262,"(53.574945679574654, -113.54820494017636)"
Strathearn Park,6710,Strathearn,53.529613,-113.461070,"(53.529550816661406, -113.4612061242714)"
Allendale School,5010,Allendale,53.500732,-113.502884,"(53.50077510398782, -113.50265618994035)"
Castle Downs Park,3180,Dunluce,53.616727,-113.525637,"(53.61662625811687, -113.5255836274918)"
Ellingson Park,5310,Parkallen,53.502942,-113.517906,"(53.50290786167197, -113.51795723695872)"
Ambleside,5505,Ambleside,53.432801,-113.603008,"(53.4327685375416, -113.60298414386091)"
Matt Berry,2500,Matt Berry,53.621892,-113.431211,"(53.62179787511833, -113.43135348191258)"
Keheewin School,5250,Keheewin,53.448382,-113.503013,"(53.44842861078905, -113.50274812512251)"
Bishop Savaryn School,3280,Lorelei,53.621621,-113.507141,"(53.6216392726847, -113.50702183427548)"
Arthur Elliott Park Playground,4580,West Jasper Place,53.533529,-113.584401,"(53.533339315175134, -113.58442075238938)"
William Hawrelak Park,5370,River Valley Mayfair,53.526744,-113.544062,"(53.526765153606775, -113.54404508539886)"
Groat Playground,3440,Westmount,53.550135,-113.538830,"(53.550243287503285, -113.53898868805607)"
Balwin Park,2020,Balwin,53.587344,-113.456089,"(53.5873900316621, -113.4559178839347)"
Bellevue School,2060,Bellevue,53.568424,-113.449031,"(53.56855057871962, -113.44898316670805)"
Rosslyn Tot Playground,3390,Rosslyn,53.598178,-113.498446,"(53.59807559537565, -113.4985423002677)"
Belgravia Community League,5040,Belgravia,53.509460,-113.530851,"(53.509574507766416, -113.53100343805158)"
Secord Playground,4487,Secord,53.533555,-113.691708,"(53.53355574663952, -113.69181141212505)"
Keswick,5576,Keswick Area,53.419665,-113.641236,"(53.41956420879721, -113.64130982204085)"
"W.C. ""Tubby"" Bateman Park",5480,Strathcona,53.523344,-113.480064,"(53.52330991321597, -113.48003048380917)"
Westwood Arena Park,1250,Westwood,53.573963,-113.493031,"(53.57383026762581, -113.49318866522597)"
Kildare,2400,Kildare,53.606108,-113.457694,"(53.60605286303034, -113.45763742143345)"
Montrose Community League,2550,Montrose,53.572458,-113.432854,"(53.57239679038565, -113.43296610948)"
Holy Family,6580,Pollard Meadows,53.447069,-113.403813,"(53.44692363733661, -113.40392393972193)"
Mother Teresa School,1020,Boyle Street,53.551859,-113.476088,"(53.55186768583581, -113.47598276404307)"
Beacon Heights Park Tot Lot,2040,Beacon Heights,53.572895,-113.395634,"(53.57298683838776, -113.3957055794486)"
Duncan Innes Park,6360,King Edward Park,53.516309,-113.452518,"(53.51625003353173, -113.45238405002553)"
John A McDougall,1030,Central McDougall,53.555242,-113.506064,"(53.5551836767699, -113.50593586090602)"
Menisa School,6450,Menisa,53.442805,-113.447308,"(53.44267805611089, -113.44738831423206)"
Hamptons,4461,The Hamptons,53.492825,-113.679887,"(53.49275980655959, -113.67965518519036)"
Thorncliff Playground,4560,Thorncliff,53.516080,-113.620735,"(53.51608399349777, -113.62078073096365)"
Aspen Gardens Community League,5020,Aspen Gardens,53.474819,-113.542903,"(53.474772599294, -113.5428137243963)"
Terwillegar South Park,5642,South Terwillegar,53.439795,-113.580068,"(53.43977989807219, -113.57995581772562)"
Rundle Park,2650,River Valley Rundle,53.554866,-113.387312,"(53.554826769462025, -113.38728101290576)"
Homesteader School,2350,Homesteader,53.586860,-113.412578,"(53.58696261361772, -113.41238242722642)"
Laurier Park Playground,3382,River Valley Laurier,53.510508,-113.548951,"(53.51050886198986, -113.54881950778045)"
Carlton Park/Elizabeth Finch School,3470,Carlton,53.619987,-113.559854,"(53.61993082104891, -113.55991222368507)"
Richford,5451,Richford,53.425719,-113.506966,"(53.42577291922244, -113.50705619153982)"
Ottewell Community League,6550,Ottewell,53.530724,-113.424180,"(53.53065191926589, -113.42415328944486)"
Centennial School (Gariepy),4160,Gariepy,53.493498,-113.623454,"(53.49335498003368, -113.62327287913038)"
Jackie Parker Park,6500,Mill Woods Golf Course,53.484067,-113.421603,"(53.484119894697685, -113.42163460971244)"
Parkview Playground,3330,Parkview,53.525112,-113.569993,"(53.52520070314215, -113.56978694252578)"
Castle Downs Park,3180,Dunluce,53.616613,-113.525023,"(53.616600857259286, -113.52514410906893)"
Gallagher Park,6070,Cloverdale,53.535997,-113.472575,"(53.53595142720296, -113.47253028300837)"
Castle Downs Park,3180,Dunluce,53.616402,-113.525633,"(53.61633271881472, -113.525544604015)"
Kinsmen Park Senior,5390,River Valley Walterdale,53.527228,-113.509179,"(53.527226855968905, -113.50926646003802)"
Donnan Park/Arena,6492,Mill Creek Ravine South,53.515547,-113.469054,"(53.515484725722416, -113.46896210400531)"
Dr. Francis Crang Park,5170,Empire Park,53.486657,-113.501659,"(53.48681154059106, -113.50166620229803)"
Homesteader School,2350,Homesteader,53.587081,-113.412397,"(53.58715483482021, -113.41241998039744)"
Beacon Heights Park Tot Lot,2040,Beacon Heights,53.572946,-113.396043,"(53.57290083354897, -113.39594918866136)"
Hillview School,6300,Hillview,53.468090,-113.427058,"(53.46794963743483, -113.42684087585438)"
Bannerman Park,2030,Bannerman,53.604172,-113.378782,"(53.60400846897964, -113.37858239982805)"
Cameron Heights,4466,Cameron Heights,53.473250,-113.636178,"(53.473221970535775, -113.63616145610119)"
St. Bernadette School,2040,Beacon Heights,53.572186,-113.402374,"(53.57228229800915, -113.40254456627042)"
Hudson Park,3480,Hudson,53.607524,-113.556311,"(53.607629327765025, -113.55627102030914)"
Michael Strembitsky,6213,Summerside,53.413816,-113.462546,"(53.413736248200905, -113.46238737823305)"
Granville Tot Lot,4551,Granville,53.507299,-113.679078,"(53.50737688997397, -113.67910703486695)"
Silverberry Park,6442,Silver Berry,53.457333,-113.384253,"(53.45742314840243, -113.38424956003664)"
Coronation,3310,North Glenora,53.555532,-113.560356,"(53.5554058032713, -113.5602778279213)"
Mount Pleasant Park,5320,Pleasantview,53.495342,-113.500531,"(53.495299922392604, -113.50064216573874)"
Delton School,1010,Alberta Avenue,53.575395,-113.478432,"(53.57532089643246, -113.47854546146351)"
Wedgewood Heights Playground,4570,Wedgewood Heights,53.480613,-113.646601,"(53.48050686596977, -113.64657120647755)"
Blackmud Park,5453,Blackmud Creek,53.420234,-113.513253,"(53.42020336589884, -113.5131198885415)"
Strathcona Communuty League,5480,Strathcona,53.522558,-113.492786,"(53.5224605852037, -113.49289373654534)"
Baturyn Park,3030,Baturyn,53.632650,-113.504608,"(53.63260369185697, -113.50443948884151)"
Ecole Frere Antoine School,6750,Tipaskan,53.460190,-113.448736,"(53.46034723232064, -113.44898390982337)"
Mayliewan (St John Bosco School) Park,2511,Mayliewan,53.622079,-113.459311,"(53.62211227285444, -113.45928899785622)"
Michael Strembitsky,6213,Summerside,53.414015,-113.462564,"(53.413923708377666, -113.46232353197678)"
McLeod Meadows,2530,McLeod,53.615016,-113.441499,"(53.61500892073627, -113.44141794287367)"
St James,6360,King Edward Park,53.513946,-113.455875,"(53.513962662525735, -113.45607141289295)"
Woodcroft Playground,3450,Woodcroft,53.564706,-113.561899,"(53.56483381074381, -113.56185157904666)"
Windsor Park Community League,5580,Windsor Park,53.523253,-113.535601,"(53.52330763822869, -113.53571871459044)"
Carlton Park/Elizabeth Finch School,3470,Carlton,53.619925,-113.559846,"(53.62000927150842, -113.55959142778221)"
Sherwood Playground,4500,Sherwood,53.528895,-113.587430,"(53.52877087443348, -113.587383418087)"
Terrace Heights School,6730,Terrace Heights,53.539320,-113.435240,"(53.53949347233207, -113.43526950410944)"
Blair McPherson,6443,Tamarack,53.468886,-113.362709,"(53.468881562541995, -113.3623836895948)"
St Catherine,1180,Queen Mary Park,53.555910,-113.509512,"(53.55592858121473, -113.50939781851547)"
Parkview Playground,3330,Parkview,53.525314,-113.569560,"(53.525352352788296, -113.56952654818735)"
Queen Alexandra,5330,Queen Alexandra,53.513476,-113.504871,"(53.51338420239097, -113.50495912498286)"
Mary Finlay Park,6230,Forest Heights,53.543593,-113.451432,"(53.543556676892464, -113.45136892597682)"
Chappelle,5462,Chappelle Area,53.406295,-113.573049,"(53.40637915215116, -113.57297367698689)"
Floden Park,2100,Beverly Heights,53.563764,-113.407838,"(53.56382267744712, -113.40776146630168)"
William Hawrelak Park,5370,River Valley Mayfair,53.526985,-113.544235,"(53.52694226549046, -113.54424668994744)"
Laurier Park Playground,3382,River Valley Laurier,53.510441,-113.548819,"(53.51040429431174, -113.54876707741008)"
Lansdowne Community League,5260,Lansdowne,53.487007,-113.545939,"(53.486944603873084, -113.5459183121809)"
Tipaskan School,6750,Tipaskan,53.462787,-113.460434,"(53.46269301640867, -113.4602846009796)"
Greenfield Community League,5220,Greenfield,53.473567,-113.526034,"(53.47351181838988, -113.52603725175314)"
Silverberry Park,6442,Silver Berry,53.457784,-113.384493,"(53.457652419179155, -113.38422367875327)"
Fulton Place Community League,6240,Fulton Place,53.546285,-113.425963,"(53.54619746674004, -113.42578550333255)"
Lynnwood Playground,4280,Lynnwood,53.516211,-113.589784,"(53.516295443869126, -113.58946550183191)"
Kameyosek School,6340,Kameyosek,53.461237,-113.443344,"(53.46133618119465, -113.44332429006482)"
Fraser School/Park,2280,Fraser,53.610600,-113.372575,"(53.61072198496389, -113.37281722454098)"
Beverly Heights Playground,2100,Beverly Heights,53.569151,-113.395331,"(53.56919083750638, -113.39549059408296)"
Ellerslie Crossing,6211,Ellerslie,53.428982,-113.459042,"(53.42909644376094, -113.45883981056339)"
Riverdale School,1210,Riverdale,53.543495,-113.467638,"(53.54338915205979, -113.46779531562782)"
Northmount Playground,2580,Northmount,53.603226,-113.481618,"(53.60349324485865, -113.48181177675323)"
William Hawrelak Park,5370,River Valley Mayfair,53.527023,-113.543955,"(53.52703006729156, -113.54403226299326)"
Queen Alexandra Community League,5330,Queen Alexandra,53.509572,-113.508492,"(53.50969526831927, -113.50824316992907)"
Granville,4551,Granville,53.498772,-113.679143,"(53.49879651424736, -113.6791211480637)"
Major General Griesbach - Central Park,3111,Griesbach,53.606096,-113.497999,"(53.6060101740797, -113.49781903166209)"
Cumberland Park,3150,Cumberland,53.611029,-113.545150,"(53.61093546778399, -113.54499077570304)"
J. A. Fife School,2410,Kilkenny,53.611118,-113.461661,"(53.611300187986345, -113.46194898071172)"
Evergreen Trailer Park,2270,Evergreen,53.632161,-113.351216,"(53.632154366128674, -113.3514130307162)"
Klarvatten,2440,Klarvatten,53.633130,-113.475354,"(53.63317765320777, -113.4752023556377)"
Meyonohk School,6470,Meyonohk,53.455062,-113.456588,"(53.45488324753219, -113.45623782230746)"
Charles Simmonds Park,5290,McKernan,53.515563,-113.530710,"(53.51560075490892, -113.53059034241798)"
St Brendan,6550,Ottewell,53.530115,-113.424346,"(53.53001650373295, -113.42435445907914)"
Oliver School,1150,Oliver,53.543694,-113.523327,"(53.54348568076385, -113.52349464464885)"
Glenridding Playground,5578,Glenridding Heights,53.420733,-113.602640,"(53.420659384793254, -113.60282653636176)"
Lago Lindo,2450,Lago Lindo,53.634790,-113.487443,"(53.63461503522089, -113.48732168355241)"
Satoo School,6680,Satoo,53.446266,-113.459121,"(53.446098077967854, -113.45911025345305)"
Westglen,3440,Westmount,53.554391,-113.541966,"(53.55448823726033, -113.5420335665195)"
Sheriff Robertson Park,1190,River Valley Kinnaird,53.559238,-113.466021,"(53.55913759050955, -113.4659839265057)"
Cameron Heights,4466,Cameron Heights,53.473060,-113.636628,"(53.47311516326843, -113.63636738869027)"
Primrose Park,4020,Aldergrove,53.517693,-113.648513,"(53.517778261001325, -113.64825000634417)"
,1010,Alberta Avenue,53.576554,-113.478124,"(53.57657905508489, -113.47821908634288)"
Aldergrove Park,4020,Aldergrove,53.518978,-113.634974,"(53.51876474890936, -113.63484405670968)"
Glengarry School,2290,Glengarry,53.595554,-113.484685,"(53.59550081145886, -113.48456296881193)"
Princeton,2020,Balwin,53.589590,-113.458885,"(53.58942821799921, -113.45877386140248)"
Laurel Park 3,6444,Laurel,53.441357,-113.388157,"(53.44129806063942, -113.38817620489634)"
Earl Buxton School,5350,Rhatigan Ridge,53.474727,-113.583930,"(53.47464296481878, -113.58413303872447)"
Meadowlark Playground,4310,Meadowlark Park,53.525249,-113.597026,"(53.525469165128264, -113.5968030093461)"
James Gibbons,4230,Jasper Park,53.522757,-113.584291,"(53.52256644767773, -113.5842566145592)"
Pleasantview Community League,5320,Pleasantview,53.493959,-113.510516,"(53.49398449822057, -113.51065105148007)"
North Glenora Community League,3310,North Glenora,53.554816,-113.557543,"(53.55498069675423, -113.55734772609912)"
St. Elizabeth Seton School/Park,2070,Belmont,53.594467,-113.396909,"(53.59445325745111, -113.39716795483946)"
Greenfield Sch,5220,Greenfield,53.472901,-113.526936,"(53.47284593101632, -113.52675321474356)"
Grace Martin School,6600,Richfield,53.469052,-113.455335,"(53.4691801043334, -113.4552426491208)"
Pleasantview Sch,5320,Pleasantview,53.495135,-113.503456,"(53.49511385380035, -113.50329965919143)"
Rutherford Sch,6040,Bonnie Doon,53.522520,-113.468375,"(53.52263762204137, -113.46804218356897)"
Queen Alexandra,5330,Queen Alexandra,53.513350,-113.504758,"(53.513370555850216, -113.50459746140801)"
,6443,Tamarack,53.459081,-113.362941,"(53.45894558684722, -113.36283920201747)"
Laurier Heights School Playground,3270,Laurier Heights,53.516828,-113.567359,"(53.51674754524103, -113.56724320123335)"
Rundle Park,2650,River Valley Rundle,53.554960,-113.386510,"(53.555000788300354, -113.38643420372205)"
Suder Greens,4730,Suder Greens,53.520861,-113.684698,"(53.52097082873898, -113.6847618369788)"
St. Williams Park,2080,Belvedere,53.596835,-113.432955,"(53.596877575042214, -113.43292512073748)"
Gallagher Park,6070,Cloverdale,53.535859,-113.472245,"(53.53592444390861, -113.47225991383439)"
Edmonton Chris,3300,McQueen,53.555715,-113.567862,"(53.5557156261341, -113.56793292950252)"
Kensington,3250,Kensington,53.595766,-113.528233,"(53.59566302384272, -113.52816820277572)"
Kinross-Kerr Park,5350,Rhatigan Ridge,53.476154,-113.596675,"(53.47621256230375, -113.5965798209736)"
Centennial School (Gariepy),4160,Gariepy,53.493471,-113.622965,"(53.493463056647734, -113.62277256858681)"
Mayfield Community League Playground,4290,Mayfield,53.555303,-113.595464,"(53.555317220809876, -113.59556312017713)"
Allendale School,5010,Allendale,53.500973,-113.502440,"(53.50090294823909, -113.50234783719588)"
Lorelei Playground,3280,Lorelei,53.623188,-113.501579,"(53.62330185218432, -113.50159075836763)"
Russ Barnes Arena/ Santa Rosa Park,2550,Montrose,53.574036,-113.446510,"(53.5741813818326, -113.44632050781843)"
Rio Terrace Playground,4430,Rio Terrace,53.508337,-113.589640,"(53.50836370730339, -113.58938831538325)"
Airway Park,1170,Prince Rupert,53.560864,-113.514342,"(53.56080663561845, -113.51452054417055)"
Canon Ridge,2120,Canon Ridge,53.580437,-113.378499,"(53.5805076199494, -113.37832356099918)"
West Meadowlark Community League,4590,West Meadowlark Park,53.529289,-113.606268,"(53.529425084934246, -113.60648347293878)"
Borden Park,1240,Virginia Park,53.561857,-113.453582,"(53.56188933637374, -113.4537179538363)"
Lansdowne Community League,5260,Lansdowne,53.486835,-113.546046,"(53.48671397422371, -113.54587065727499)"
Callingwood Playground,4070,Callingwood North,53.508309,-113.621887,"(53.50821685699417, -113.62213503221038)"
Pleasantview Sch,5320,Pleasantview,53.494961,-113.503344,"(53.494910228488266, -113.50320113347001)"
Montrose School,2550,Montrose,53.572302,-113.435505,"(53.57240956575861, -113.4355550549819)"
Glengarry Park,2290,Glengarry,53.595854,-113.476635,"(53.596002111725525, -113.47655253340571)"
Kernohan,2390,Kernohan,53.593434,-113.383565,"(53.59359324468707, -113.38360171875311)"
Carlisle Playground,3090,Carlisle,53.605017,-113.523752,"(53.60485740279104, -113.52395982040659)"
Rosslyn Playground,3390,Rosslyn,53.594136,-113.512246,"(53.59418084224575, -113.51217797669018)"
Minchau School,6530,Minchau,53.468897,-113.408760,"(53.46887141401057, -113.40899356520325)"
Creek's Crossing Park/Blessed Kateri,6370,Kiniski Gardens,53.475593,-113.400569,"(53.47554236400389, -113.40028071365884)"
,3190,Elsinore,53.641047,-113.505929,"(53.64102656823138, -113.50598485432951)"
Central Hill Park,3111,Griesbach,53.606719,-113.500061,"(53.60671873035653, -113.50008541907286)"
York Community League/Steele Heights,2720,York,53.602017,-113.433542,"(53.601830147850265, -113.43335336205855)"
Queen Mary Park School,1180,Queen Mary Park,53.555628,-113.514451,"(53.55545073049865, -113.5145692143823)"
Rundle Park,2650,River Valley Rundle,53.555160,-113.386348,"(53.555160686846854, -113.38640189236085)"
Twin Brooks,5511,Twin Brooks,53.443317,-113.526948,"(53.4431160803807, -113.52678160846281)"
St Paul,3140,Crestwood,53.533495,-113.571835,"(53.53355780957982, -113.57174543218257)"
Laurier Heights School Playground,3270,Laurier Heights,53.517072,-113.567134,"(53.5169922789337, -113.56727725433188)"
Elsinore/Chambery Park,3190,Elsinore,53.641201,-113.505622,"(53.641037755376786, -113.50558993467325)"
Westmount Back Alley Park,3440,Westmount,53.552329,-113.547237,"(53.55235888751485, -113.5471735281431)"
Beverly Heights Park Tot Lot,2100,Beverly Heights,53.560941,-113.400918,"(53.56084808579887, -113.40112274260319)"
Edmonton Chris,3300,McQueen,53.556088,-113.567665,"(53.55598429563135, -113.56756775492264)"
James Ramsay Park,5340,Ramsay Heights,53.481082,-113.581321,"(53.48112852604663, -113.58143185994042)"
Mt. Royal Sch,2330,Highlands,53.568900,-113.424661,"(53.568847229519676, -113.42478432664635)"
Potter Greens Playground #2,4710,Potter Greens,53.517662,-113.675223,"(53.51777350834921, -113.67489851781147)"
Capilano School,6061,Capilano,53.555805,-113.422175,"(53.55585572284862, -113.42224273825406)"
Queen Elizabeth Park,5390,River Valley Walterdale,53.525338,-113.494724,"(53.525249588955866, -113.49474549037905)"
Ellerslie Crossing,6211,Ellerslie,53.428910,-113.458439,"(53.428956322368755, -113.45846040305983)"
Lynnwood,4280,Lynnwood,53.516406,-113.587388,"(53.5163459992892, -113.58727754861967)"
Suder Greens,4730,Suder Greens,53.521009,-113.684503,"(53.521124383294364, -113.68453609465831)"
Ermineskin Park,5180,Ermineskin,53.456861,-113.506023,"(53.456929739857614, -113.50614587950774)"
Balwin Park,2020,Balwin,53.587138,-113.456135,"(53.58721513612368, -113.45612484014354)"
Bessie Nichols School Playground,4461,The Hamptons,53.486341,-113.672525,"(53.48626227020707, -113.67232465553928)"
Kitchener Park,1150,Oliver,53.544307,-113.518814,"(53.5442394673724, -113.51877110890669)"
Terwillegar South Park,5642,South Terwillegar,53.439869,-113.580270,"(53.43978655379651, -113.58022853629825)"
Sherbrooke Playground,3410,Sherbrooke,53.574815,-113.548285,"(53.57477012237739, -113.54826589513826)"
Elmwood Community League,4140,Elmwood,53.516113,-113.605837,"(53.516056483598604, -113.60568416651601)"
Brookside School,5090,Brookside,53.491247,-113.568702,"(53.49121399525363, -113.56870705183006)"
Larkspur Park,6390,Larkspur,53.480349,-113.387050,"(53.48038071980072, -113.38676215698237)"
Secord,4487,Secord,53.532371,-113.705800,"(53.532385709295355, -113.70566999666573)"
Gabrielle Roy School,6710,Strathearn,53.529852,-113.462188,"(53.52975761824225, -113.46207971426574)"
Glastonbury Park (The Grange),4720,Glastonbury,53.506555,-113.667468,"(53.506605888980886, -113.667544281702)"
Oxford Park,3320,Oxford,53.618061,-113.547904,"(53.61801061978693, -113.54790898959163)"
Virginia Park School,1240,Virginia Park,53.560419,-113.449744,"(53.56035343777288, -113.44955773498386)"
Athlone Park,3010,Athlone,53.589151,-113.545913,"(53.58930693739474, -113.54577450994066)"
Orchards,6213,Summerside,53.411773,-113.470903,"(53.41170120250548, -113.47107083646144)"
Ellerslie Elementary School,6661,Charlesworth,53.425679,-113.442226,"(53.425525617637575, -113.4423176536097)"
Carlisle Playground,3090,Carlisle,53.605111,-113.524020,"(53.60502599955788, -113.52406505363527)"
Rideau School,5360,Rideau Park,53.477885,-113.504652,"(53.47785788639381, -113.50462488074582)"
Prince Charles Playground,3350,Prince Charles,53.574456,-113.536758,"(53.574439322329795, -113.53668770795156)"
Ellerslie Elementary School,6661,Charlesworth,53.425738,-113.442135,"(53.42556102569412, -113.44203877288298)"
Our Lady of Mount Carmel,5330,Queen Alexandra,53.513184,-113.502340,"(53.513071739618425, -113.50226588120714)"
St Maria Goretti,2350,Homesteader,53.585753,-113.407081,"(53.58577567976666, -113.40690034897537)"
Glengarry School,2290,Glengarry,53.595586,-113.484664,"(53.59565086583406, -113.48454978187823)"
Rosenthal,4750,Rosenthal,53.517090,-113.699334,"(53.517190521372626, -113.69927558681792)"
John J. Olinyk Park,2100,Beverly Heights,53.568538,-113.412989,"(53.56849506066419, -113.41296114168331)"
Alberta Avenue NW,1010,Alberta Avenue,53.571276,-113.483832,"(53.57126325312434, -113.48390443159634)"
Calder Community League Playground,3070,Calder,53.586316,-113.528280,"(53.586282239425415, -113.528175123927)"
Borden Park,1240,Virginia Park,53.561833,-113.454131,"(53.5617912126381, -113.4541172501887)"
Overlanders Playground,2590,Overlanders,53.581129,-113.387773,"(53.58114889931364, -113.38741173761892)"
St Martin,5270,Lendrum Place,53.488852,-113.523579,"(53.48882412016688, -113.52342974491316)"
James Ramsay Park,5340,Ramsay Heights,53.480959,-113.581292,"(53.481039545870566, -113.58111259716071)"
Creek's Crossing Park/Blessed Kateri,6370,Kiniski Gardens,53.475249,-113.400152,"(53.47524699785697, -113.4002917625377)"
Blackmud Park,5453,Blackmud Creek,53.420107,-113.512827,"(53.42006091702112, -113.51289220052251)"
Eaux Claires Park Playground,2241,Eaux Claires,53.621883,-113.486018,"(53.621757045145344, -113.48586770436144)"
Weinlos School,6770,Weinlos,53.461444,-113.415831,"(53.46136542247125, -113.41565416209559)"
Abbotsfield Playground,2010,Abbottsfield,53.573601,-113.389813,"(53.57368539505818, -113.39005320748589)"
Waverley,6350,Kenilworth,53.523686,-113.434200,"(53.52361905630477, -113.43408208098585)"
Lymburn School Playground,4270,Lymburn,53.506354,-113.647530,"(53.50621614491187, -113.6477789767224)"
Henri Legay,2720,York,53.603739,-113.421417,"(53.603711073231224, -113.42123046883393)"
St. Vladimir,2230,Delwood,53.592582,-113.457679,"(53.592508096179245, -113.45740425781966)"
St Monica,5080,Brander Gardens,53.490716,-113.573493,"(53.49079684146545, -113.57350150679243)"
Mee-Yah-Noh School,2420,Killarney,53.587554,-113.482795,"(53.58771930893607, -113.48293958527424)"
Knob Hill Park,6491,Mill Creek Ravine North,53.531771,-113.479720,"(53.53178467409753, -113.4796170268641)"
Mayliewan (St John Bosco School) Park,2511,Mayliewan,53.621879,-113.459063,"(53.621923772307994, -113.45906701926849)"
Glenora,3200,Glenora,53.544012,-113.554941,"(53.54404988072146, -113.5549657863117)"
Charles Simmonds Park,5290,McKernan,53.515317,-113.530811,"(53.51542590523449, -113.53082297501416)"
Parkdale School,1160,Parkdale,53.567688,-113.472183,"(53.56770391394235, -113.47210491753218)"
CASA Centre,5010,Allendale,53.499650,-113.506961,"(53.49958403570963, -113.50688028590267)"
Hillview School,6300,Hillview,53.468090,-113.426602,"(53.46812928310193, -113.42679328482237)"
Greenfield Sch,5220,Greenfield,53.472585,-113.525918,"(53.47258826667395, -113.52580670118564)"
Kinsmen Park Senior,5390,River Valley Walterdale,53.526710,-113.509101,"(53.526708018875254, -113.50917021468265)"
Westmount Playground,3440,Westmount,53.555897,-113.541624,"(53.55599747891279, -113.54171654672564)"
Sister Annata Brockman,4461,The Hamptons,53.490274,-113.683409,"(53.49011705916958, -113.68341829276343)"
Abbott School,2010,Abbottsfield,53.574703,-113.392308,"(53.574821006675, -113.39248346512042)"
Talmud Torah,4080,Callingwood South,53.499394,-113.621780,"(53.49934125189027, -113.62160693678173)"
Belmont,2070,Belmont,53.593357,-113.393605,"(53.59332840736951, -113.39385835540861)"
St. Francis,2020,Balwin,53.588500,-113.443086,"(53.58827223557575, -113.44319708370605)"
Meyokumin School,6460,Meyokumin,53.450066,-113.429408,"(53.45006417235691, -113.42964446013184)"
Mount Royal,2330,Highlands,53.567389,-113.424232,"(53.567509677719265, -113.42443947357364)"
Bonnie Doon Park,6040,Bonnie Doon,53.527662,-113.470526,"(53.52767895421978, -113.47057207940244)"
William Hawrelak Park,5370,River Valley Mayfair,53.526790,-113.544553,"(53.52681073160268, -113.54434933101484)"
Kinross-Kerr Park,5350,Rhatigan Ridge,53.475941,-113.596580,"(53.476018288546385, -113.59663455507786)"
Westview Village School Playground,4620,Westview Village,53.553179,-113.692003,"(53.55317301656568, -113.69229410769339)"
Donnan Park/Arena,6492,Mill Creek Ravine South,53.515335,-113.468689,"(53.51530479053235, -113.46862720318748)"
Hairsine Community League,2320,Hairsine,53.603790,-113.390788,"(53.60372136492547, -113.39058740739935)"
Westglen,3440,Westmount,53.555004,-113.542432,"(53.55498320646577, -113.54238653838765)"
Emily Murphy Park,5370,River Valley Mayfair,53.534165,-113.538733,"(53.534057119089425, -113.53869390398553)"
Glenwood Community League,4180,Glenwood,53.535861,-113.604909,"(53.53568362347323, -113.60508460254773)"
Allan Grey Park,6020,Avonmore,53.511689,-113.462215,"(53.51163392267621, -113.46225313790589)"
Inglewood Tot Lot,3240,Inglewood,53.561041,-113.531827,"(53.5608608826661, -113.53188507329699)"
Summerside 58,6213,Summerside,53.412834,-113.446434,"(53.41277780623791, -113.44631527604098)"
Kildare Park,2400,Kildare,53.605685,-113.456001,"(53.60566777316226, -113.45587051465404)"
Magrath Heights,5476,Magrath Heights,53.449412,-113.559623,"(53.44937282498208, -113.55955427300111)"
Garneau Community League,5200,Garneau,53.519855,-113.513171,"(53.519795246983264, -113.5134411822287)"
,3430,Wellington,53.596951,-113.560166,"(53.59701427452394, -113.56013363343597)"
Dechene Playground,4110,Dechene,53.491407,-113.636820,"(53.49148266325635, -113.63699778013246)"
Ozerna Park,2600,Ozerna,53.621087,-113.448356,"(53.620999487017514, -113.44852792535178)"
Mount Pleasant Park,5320,Pleasantview,53.495348,-113.500413,"(53.495358596859326, -113.5002421463592)"
Greenfield Sch,5220,Greenfield,53.472671,-113.526172,"(53.472774029897025, -113.52620325209716)"
Crawford Plains School,6140,Crawford Plains,53.440890,-113.404398,"(53.44088368461463, -113.4041530145366)"
Ken Newman Playground,4200,High Park,53.553795,-113.580952,"(53.553826583773, -113.5810740754017)"
Windermere Ridge,5570,Windermere,53.440776,-113.629687,"(53.44059363945223, -113.62977276084146)"
Cardinal Leger,2260,Evansdale,53.606281,-113.475330,"(53.606399538966265, -113.47535545938993)"
King Edward Park,6360,King Edward Park,53.513848,-113.460467,"(53.51381086740418, -113.46038972409156)"
Kenilworth Park,6350,Kenilworth,53.522691,-113.437650,"(53.52253377042426, -113.4375434531594)"
Mayliewan (St John Bosco School) Park,2511,Mayliewan,53.622052,-113.459285,"(53.621984577950215, -113.45930816493951)"
Delwood School/Park,2230,Delwood,53.596599,-113.457338,"(53.59645044817171, -113.45751997861265)"
Lendrum/Avalon School,5270,Lendrum Place,53.491285,-113.522878,"(53.49116160445075, -113.52317257909812)"
John Paul School,6300,Hillview,53.471510,-113.426494,"(53.47166058878901, -113.42665210342219)"
Gordon Drynan Park,4060,Britannia Youngstown,53.546115,-113.609435,"(53.54612844927371, -113.60934453961013)"
Laurier Park Playground,3382,River Valley Laurier,53.509446,-113.553263,"(53.50946085899716, -113.55315591727012)"
Malmo Plains School,5280,Malmo Plains,53.485215,-113.530228,"(53.48521076623429, -113.53039707177714)"
Oliver Arena/ Community League,1150,Oliver,53.545605,-113.525817,"(53.54552186959038, -113.525672497843)"
Afton School,4590,West Meadowlark Park,53.526786,-113.608800,"(53.526922733652825, -113.60871065805253)"
,2521,McConachie Area,53.640044,-113.428298,"(53.64010884228574, -113.42841551978564)"
Rundle Heights School,2660,Rundle Heights,53.562019,-113.392463,"(53.561882704560276, -113.39218974972292)"
Aspen Gardens Community League,5020,Aspen Gardens,53.474935,-113.542992,"(53.47499191351653, -113.5426062350362)"
Rundle Park,2650,River Valley Rundle,53.555139,-113.386037,"(53.555129389618756, -113.38601375401873)"
Sweetgrass School,5490,Sweet Grass,53.462854,-113.529558,"(53.46283056163496, -113.5292408074265)"
Sakaw School,6670,Sakaw,53.440951,-113.430073,"(53.44103059872204, -113.43015255068329)"
Brightview School,4090,Canora,53.548789,-113.587795,"(53.548723347538825, -113.58765869569449)"
Jackie Parker Park,6500,Mill Woods Golf Course,53.484393,-113.423195,"(53.48429657539976, -113.42296202231392)"
Holy Family,6580,Pollard Meadows,53.447182,-113.403672,"(53.447142586087395, -113.40352232395257)"
St Clare,2550,Montrose,53.571827,-113.438122,"(53.57172921055217, -113.43809142092928)"
Brittania Youngstown Community League,4060,Britannia Youngstown,53.548457,-113.598114,"(53.54830594374651, -113.59805039394965)"
St Vincent,3200,Glenora,53.548619,-113.560783,"(53.548556945274896, -113.56067221514112)"
Woodcroft Sch,3450,Woodcroft,53.567189,-113.560750,"(53.567177411311945, -113.56092332783973)"
Summerlea Playground,4520,Summerlea,53.527008,-113.624372,"(53.52691331974016, -113.6241199371543)"
Henderson Park,5230,Henderson Estates,53.468860,-113.597833,"(53.4687708700393, -113.59808872601252)"
Central Hill Park,3111,Griesbach,53.606836,-113.500297,"(53.60679503896567, -113.50024267338256)"
Crestwood Tot Lot,3140,Crestwood,53.538869,-113.575141,"(53.53886689545095, -113.57492527814213)"
Tipaskan School,6750,Tipaskan,53.462622,-113.459927,"(53.46269834823434, -113.4598730041267)"
St. Edmund School Playground,3070,Calder,53.590832,-113.524672,"(53.59081166077691, -113.5245680106963)"
Silver Heights Park,6710,Strathearn,53.532718,-113.464610,"(53.53270541923715, -113.46453487853321)"
Rutherford Sch,6040,Bonnie Doon,53.522498,-113.467972,"(53.52244252572048, -113.46790602949142)"
Hardisty,6240,Fulton Place,53.548066,-113.429645,"(53.54807349747373, -113.42951194784759)"
Westglen Playground,3440,Westmount,53.555011,-113.543874,"(53.55487190001356, -113.5439507929379)"
Rainbow Valley Campground,5550,Whitemud Creek Ravine North,53.485094,-113.555555,"(53.48502709554836, -113.55543332160099)"
Malcolm Tweddle School,6760,Tweddle Place,53.476746,-113.457027,"(53.476904995720346, -113.45661462585495)"
Parkdale School,1160,Parkdale,53.567665,-113.472190,"(53.56757188585204, -113.47215614911534)"
Blackmud Park,5453,Blackmud Creek,53.420360,-113.513212,"(53.42035464586437, -113.51340052452935)"
Forest Heights School,6230,Forest Heights,53.544215,-113.452799,"(53.5440201273283, -113.45298325830103)"
Blackburne,5590,Blackburne,53.429428,-113.499439,"(53.429508175692476, -113.49934739149744)"
Hairsine Community League,2320,Hairsine,53.603346,-113.390056,"(53.603507329831416, -113.39025912241749)"
Ecole Frere Antoine School,6750,Tipaskan,53.460093,-113.448957,"(53.4600227917294, -113.44881536197767)"
Queen Mary CL,1180,Queen Mary Park,53.554221,-113.524680,"(53.55415962464754, -113.52455140608791)"
MacEwan,5452,MacEwan,53.429397,-113.530360,"(53.42947869131102, -113.53024432145217)"
Kinsmen Park Senior,5390,River Valley Walterdale,53.526855,-113.509070,"(53.52683025172309, -113.5090212159268)"
Dunluce,3180,Dunluce,53.622426,-113.528323,"(53.62251508807297, -113.52813921964955)"
Elmwood Community League,4140,Elmwood,53.515915,-113.606077,"(53.51580276281517, -113.60585939188091)"
Glastonbury Park West,4720,Glastonbury,53.505632,-113.672543,"(53.505611740852714, -113.67243333331118)"
Canon Ridge,2120,Canon Ridge,53.580837,-113.378457,"(53.58064239414388, -113.37853497827858)"
Magrath Heights,5476,Magrath Heights,53.449597,-113.559605,"(53.4494905869322, -113.55943738271414)"
Glenora,3200,Glenora,53.544128,-113.555319,"(53.54422712599825, -113.55506678201027)"
Idylwylde Park,6320,Idylwylde,53.523285,-113.451558,"(53.523245507999164, -113.45168929863348)"
Prince Rupert School,1170,Prince Rupert,53.562263,-113.519538,"(53.56238574970742, -113.5194592056439)"
Forest Heights Park,6230,Forest Heights,53.545373,-113.453692,"(53.54534614343943, -113.45364846766628)"
R. J. Scott,2100,Beverly Heights,53.568884,-113.400981,"(53.56890547093537, -113.4011096106929)"
St Justins,4560,Thorncliff,53.517228,-113.622181,"(53.51714960761464, -113.6219611988852)"
Beverly Heights Park Tot Lot,2100,Beverly Heights,53.560903,-113.400920,"(53.56082104758433, -113.4009947278891)"
Jamieson Place Playground,4220,Jamieson Place,53.490420,-113.650559,"(53.490364031866676, -113.65023196634246)"
Jackie Parker Park,6500,Mill Woods Golf Course,53.484076,-113.421981,"(53.484042752204985, -113.42183405986566)"
Charles Simmonds Park,5290,McKernan,53.515686,-113.531021,"(53.515649209070475, -113.53095860684789)"
Windermere Park,5570,Windermere,53.427144,-113.622708,"(53.42724095507416, -113.62253681991204)"
Garneau School West,5200,Garneau,53.522109,-113.514668,"(53.52207214525639, -113.51447586161851)"
Empire Park Community League,5170,Empire Park,53.486091,-113.508576,"(53.486076747988655, -113.50869466900176)"
Delton Tot Lot,1080,Delton,53.579556,-113.489400,"(53.579508541521236, -113.48926578837988)"
Grovenor Playground,3210,Grovenor,53.545726,-113.568536,"(53.545948506003946, -113.56846804747354)"
Baturyn Park,3030,Baturyn,53.632766,-113.504602,"(53.63266403209681, -113.50482853049658)"
Wellington Park Playground,3430,Wellington,53.596481,-113.550355,"(53.59659978616496, -113.55042818631875)"
Spruce Avenue Playground,1230,Spruce Avenue,53.565579,-113.497070,"(53.565484621994955, -113.49725145939593)"
Brander Gardens School,5080,Brander Gardens,53.493446,-113.577755,"(53.49336750119808, -113.57768611255707)"
Blue Quill Community,5060,Blue Quill,53.458002,-113.524493,"(53.45811370497819, -113.52466981006623)"
Rosslyn Tot Playground,3390,Rosslyn,53.597945,-113.498718,"(53.59791647731099, -113.49866899142881)"
Eastwood School,1100,Eastwood,53.574854,-113.464878,"(53.57491571310317, -113.46497067467902)"
Mayfield Community League Playground,4290,Mayfield,53.555131,-113.595074,"(53.55523027503287, -113.59527747772194)"
Dunluce Community League Playground,3180,Dunluce,53.623680,-113.525081,"(53.62373160665818, -113.52508698428673)"
Lendrum Place Community League,5270,Lendrum Place,53.493969,-113.524165,"(53.49397429010441, -113.52430669542034)"
Ecole Ste. Jeanne D'Arc,6350,Kenilworth,53.520724,-113.430418,"(53.520856596926855, -113.43027917324895)"
Lendrum/Avalon School,5270,Lendrum Place,53.491312,-113.523091,"(53.49138431029428, -113.52297861052459)"
Glendale School,4180,Glenwood,53.536630,-113.600483,"(53.536543702574065, -113.6003213180453)"
Fulton PIace School,6240,Fulton Place,53.545376,-113.425482,"(53.54530391338922, -113.42517012747862)"
Robert Carter Park,5130,Carter Crest,53.464599,-113.575100,"(53.464439074400744, -113.57517243034218)"
St. Boniface,5430,Royal Gardens,53.477312,-113.537266,"(53.477295094185024, -113.53704020566744)"
Richard Secord,5430,Royal Gardens,53.477396,-113.533504,"(53.477448482738275, -113.5337059248435)"
Hodgson Park,5620,Hodgson,53.458592,-113.558903,"(53.45852833352579, -113.55874080054362)"
Keyano Park,3070,Calder,53.589736,-113.527318,"(53.589644764415816, -113.5273802555203)"
Lendrum Place Community League,5270,Lendrum Place,53.494304,-113.523869,"(53.494231060052186, -113.5241769690083)"
St Teresa,5060,Blue Quill,53.458047,-113.527944,"(53.457951967685986, -113.52789542901714)"
Ellingson Park,5310,Parkallen,53.503167,-113.517633,"(53.503164905005654, -113.51793286388093)"
St. Patrick School,1010,Alberta Avenue,53.574476,-113.489478,"(53.574340621309005, -113.48939972278455)"
McKernan School,5290,McKernan,53.513715,-113.523566,"(53.51354888179816, -113.52375106217823)"
Beverly Heights Lions Playground,2100,Beverly Heights,53.567310,-113.407190,"(53.56737742853056, -113.40702091638053)"
St. Richard School,6460,Meyokumin,53.446173,-113.429203,"(53.44617651627715, -113.42906835061815)"
Chalmers Park Playground,3070,Calder,53.590833,-113.534185,"(53.590889554276515, -113.53409764099916)"
Newton School,2560,Newton,53.576178,-113.427396,"(53.57608733804687, -113.42748487641657)"
Argyll Park,6492,Mill Creek Ravine South,53.505153,-113.463651,"(53.50502084986853, -113.46372935223707)"
Klarvatten,2440,Klarvatten,53.633112,-113.475721,"(53.6331284317997, -113.47561742047932)"
Rio Terrace Sch,4430,Rio Terrace,53.508702,-113.587078,"(53.508793580907664, -113.58709857528277)"
Ekota School,6200,Ekota,53.450126,-113.442054,"(53.450014075999846, -113.44195723846902)"
Mother Teresa School,1020,Boyle Street,53.551845,-113.476138,"(53.55177962207456, -113.47621184614276)"
Terwillegar Towne East,5640,Terwillegar Towne,53.446632,-113.575345,"(53.44667254331623, -113.57518794191668)"
Winterburn School Playground,4485,Lewis Farms Industrial,53.534402,-113.687359,"(53.53424680160164, -113.68733810650133)"
Grandview School,5210,Grandview Heights,53.499097,-113.546200,"(53.49901708986428, -113.54647487611811)"
Albert G. Nickel Park Playground,3430,Wellington,53.597035,-113.559739,"(53.59709672922209, -113.55985624486632)"
Evansdale School/Park,2260,Evansdale,53.610414,-113.482297,"(53.6103157794991, -113.48250277101025)"
Inglewood Playground,3240,Inglewood,53.566193,-113.539338,"(53.56625922156021, -113.53948998295463)"
Alberta Avenue NW,1010,Alberta Avenue,53.570990,-113.483979,"(53.5710980900289, -113.48385919722615)"
Riverdale Park,1210,Riverdale,53.541380,-113.473232,"(53.54148739820643, -113.47329862256974)"
Lee Ridge School,6400,Lee Ridge,53.471312,-113.446159,"(53.471164567978974, -113.44615203814115)"
Bonnie Doon Park,6040,Bonnie Doon,53.527382,-113.471052,"(53.52742358158687, -113.47105174342659)"
Westwood Community League Park,1250,Westwood,53.576164,-113.499561,"(53.57618670180314, -113.49975969329267)"
Summerside 58,6213,Summerside,53.412975,-113.446532,"(53.41295237662041, -113.44646068241552)"
Victoria Park,1200,River Valley Victoria,53.533937,-113.523658,"(53.533984434360924, -113.52359169382508)"
Brittania Youngstown Community League,4060,Britannia Youngstown,53.548388,-113.597827,"(53.54846980173055, -113.59783772033968)"
Ritchie Park,6610,Ritchie,53.513893,-113.481833,"(53.51392651876913, -113.48163368071484)"
King Edward School,5480,Strathcona,53.521405,-113.492582,"(53.521502120477095, -113.49252780503058)"
Secord Playground,4487,Secord,53.533431,-113.691525,"(53.5334312203346, -113.6916465121084)"
Malmo Plains School,5280,Malmo Plains,53.485078,-113.530391,"(53.48494966057933, -113.53039742307118)"
Prince Charles,3350,Prince Charles,53.578222,-113.539786,"(53.578339983950926, -113.53964213019728)"
Larkspur Dry Pond,6390,Larkspur,53.478561,-113.377963,"(53.47850220273065, -113.3780469750128)"
John Patrick Gillese Park,4720,Glastonbury,53.503418,-113.669005,"(53.50339708206493, -113.66885575551018)"
Rutherford Park,5454,Rutherford,53.420024,-113.535001,"(53.42010365216122, -113.53493315592763)"
Glengarry Day C,2290,Glengarry,53.594279,-113.475750,"(53.594404012371214, -113.47548808444824)"
St. Gregory,3300,McQueen,53.552114,-113.568846,"(53.55204955595114, -113.56868441829322)"
JH Picard,6290,Hazeldean,53.506922,-113.485153,"(53.506920960613655, -113.48549722263533)"
La Perle Playground,4240,La Perle,53.533310,-113.643823,"(53.533239417639436, -113.64391371064235)"
Bisset School,6030,Bisset,53.461850,-113.399427,"(53.46175134990383, -113.39922319915367)"
Our Lady of Vic,4280,Lynnwood,53.514279,-113.594892,"(53.514431179945376, -113.59480117705664)"
Mill Woods Play and Spray,6510,Mill Woods Park,53.455272,-113.436248,"(53.455281314085695, -113.43606328058883)"
Cumberland Park,3150,Cumberland,53.610989,-113.544352,"(53.610976250977714, -113.54448973605948)"
Norwood School,1010,Alberta Avenue,53.560035,-113.488370,"(53.56007368967386, -113.48820266446359)"
Windermere Tot Lot,5570,Windermere,53.447601,-113.611371,"(53.447510376557716, -113.61128822681195)"
Greenfield Sch,5220,Greenfield,53.472514,-113.525810,"(53.47243488006855, -113.52582230965199)"
Father L. Green,2410,Kilkenny,53.607279,-113.457099,"(53.607204274969774, -113.45726198179061)"
Terwillegar Towne Playground,5640,Terwillegar Towne,53.449854,-113.584851,"(53.44968746923235, -113.58477866773597)"
Giovanni Caboto,1140,McCauley,53.556266,-113.484164,"(53.55628603790177, -113.48409096894517)"
Ogilvie Ridge Community,5300,Ogilvie Ridge,53.463286,-113.561864,"(53.46322739577123, -113.56200881852428)"
Starling,4474,Starling,53.593650,-113.655154,"(53.59362356339111, -113.65527400666326)"
Belgravia Community League,5040,Belgravia,53.509570,-113.530525,"(53.50954448596987, -113.53065578505371)"
Cy Becker Tot Lot,2611,Cy Becker,53.629203,-113.401175,"(53.62914051975014, -113.40109612525153)"
St. Gabriel School,6061,Capilano,53.550610,-113.423470,"(53.55054348055042, -113.42341198035481)"
Giovanni Caboto,1140,McCauley,53.556424,-113.484156,"(53.55648228164848, -113.48397484410091)"
Overlanders Playground,2590,Overlanders,53.580988,-113.387383,"(53.58093034500219, -113.38721722764402)"
Borden Park,1240,Virginia Park,53.561928,-113.454117,"(53.56193719297596, -113.45422459554945)"
Westglen,3440,Westmount,53.554847,-113.542409,"(53.55488067279593, -113.54241259310632)"
Richfield Tot Lot,6600,Richfield,53.473039,-113.457482,"(53.47296519494199, -113.45757128947716)"
Jackie Parker Park,6500,Mill Woods Golf Course,53.484242,-113.421958,"(53.48423189162405, -113.42223075226258)"
Kildare Park,2400,Kildare,53.605572,-113.456296,"(53.605505563410446, -113.45620612553081)"
Cameron Heights,4466,Cameron Heights,53.473239,-113.636405,"(53.4732607933161, -113.63633064540521)"
Windsor Park School,5580,Windsor Park,53.523573,-113.536033,"(53.52357813590162, -113.53596822067729)"
Ottewell Community League,6550,Ottewell,53.530909,-113.423959,"(53.53103336161079, -113.42409289397625)"
Rundle Park,2650,River Valley Rundle,53.555069,-113.386828,"(53.55504181322043, -113.38684585269638)"
Potter Greens Playground #1,4710,Potter Greens,53.519359,-113.666858,"(53.519315915046334, -113.66672743162366)"
Norwood Square,1010,Alberta Avenue,53.564870,-113.487874,"(53.56478936621873, -113.4880647436906)"
St. Angela School,3430,Wellington,53.595519,-113.551362,"(53.595477404590625, -113.55128559142116)"
Glastonbury Park West,4720,Glastonbury,53.505534,-113.672428,"(53.505459087494124, -113.67257749860597)"
Beverly Jubilee Park,2040,Beacon Heights,53.574396,-113.407220,"(53.57422828756202, -113.4070959678653)"
Silver Heights Park,6710,Strathearn,53.532741,-113.464921,"(53.532566098765386, -113.46490543415725)"
Falconer Park,5190,Falconer Heights,53.463152,-113.588499,"(53.463293624596396, -113.58824710032121)"
Ellerslie Campus,6661,Charlesworth,53.426798,-113.442334,"(53.426819455269566, -113.4421377976245)"
,4080,Callingwood South,53.499450,-113.622416,"(53.49953306483341, -113.62251244945759)"
Holyrood School,6310,Holyrood,53.531167,-113.450762,"(53.53102890560218, -113.45088443925957)"
Laurel Park,6444,Laurel,53.451392,-113.390185,"(53.451417492425286, -113.39007279738655)"
Kenilworth Park,6350,Kenilworth,53.522641,-113.437440,"(53.52267233997675, -113.43736219567083)"
Hollick Kenyon Park Playground,2340,Hollick-Kenyon,53.621382,-113.419882,"(53.621366785541234, -113.4201297557563)"
Kenilworth Park,6350,Kenilworth,53.522972,-113.437560,"(53.52283241065646, -113.43747039343164)"
Brightview Community League,4090,Canora,53.548483,-113.587363,"(53.54839652980198, -113.58727185561975)"
Donnan Park/Arena,6492,Mill Creek Ravine South,53.515336,-113.468507,"(53.51529389491394, -113.46846869442464)"
Royal Gardens Community League,5430,Royal Gardens,53.478204,-113.535767,"(53.47812825946394, -113.53577006375713)"
Maple Ridge Park,6410,Maple Ridge,53.501645,-113.368111,"(53.50186293909404, -113.36807873737737)"
Central McDougall,1030,Central McDougall,53.555211,-113.503869,"(53.5551623282009, -113.50371638588254)"
Woodcroft Playground,3450,Woodcroft,53.564999,-113.561878,"(53.56488296828316, -113.56203124827161)"
Floden Park,2100,Beverly Heights,53.563655,-113.408014,"(53.56368041433589, -113.4079055203704)"
Floden Park,2100,Beverly Heights,53.563735,-113.407420,"(53.563755112980814, -113.40752426651201)"
Westbrook School,5020,Aspen Gardens,53.475491,-113.540880,"(53.47537665248382, -113.5407020925085)"
King Edward School,5480,Strathcona,53.521291,-113.492702,"(53.52126390372736, -113.49255752438086)"
Paisley Park,5469,Paisley,53.414677,-113.559506,"(53.41467706881488, -113.5595727615555)"
McKernan Park,5290,McKernan,53.510915,-113.519130,"(53.51105002673305, -113.51891810551678)"
Rapperswill,3370,Rapperswill,53.637803,-113.532713,"(53.637800450674234, -113.53282476241958)"
Daly Grove School,6150,Daly Grove,53.448864,-113.399378,"(53.448960479918355, -113.39929245227154)"
Monsignor Walter Fitzgerald Playground,4270,Lymburn,53.505571,-113.635037,"(53.505522615705694, -113.6348507708467)"
Jackie Parker Park,6500,Mill Woods Golf Course,53.484457,-113.424477,"(53.48439803981091, -113.42443646459654)"
Lilliput Park,6610,Ritchie,53.510060,-113.479383,"(53.51008419717785, -113.47918319028909)"
St. Phillip/Kinsman,2260,Evansdale,53.609079,-113.475476,"(53.609132058326686, -113.47540653811392)"
Ekota School,6200,Ekota,53.450059,-113.442471,"(53.45000465616734, -113.44233800780879)"
St. Gerard School,1100,Eastwood,53.580182,-113.469756,"(53.58007054630596, -113.46960598800857)"
Balwin,2020,Balwin,53.591415,-113.450804,"(53.591366113183994, -113.45071618962703)"
Terwillegar Towne East,5640,Terwillegar Towne,53.446723,-113.575530,"(53.446673217361806, -113.57545767310731)"
McQueen Community League,3300,McQueen,53.554140,-113.570273,"(53.55418939125875, -113.57041439115008)"
Kinsmen Park Senior,5390,River Valley Walterdale,53.527291,-113.509153,"(53.52724773174176, -113.50894606123353)"
Terwillegar Towne East,5640,Terwillegar Towne,53.446564,-113.575575,"(53.44646980912559, -113.57552726066206)"
"W.C. ""Tubby"" Bateman Park",5480,Strathcona,53.523229,-113.480044,"(53.52318290845394, -113.48011036294207)"
Greenview,6280,Greenview,53.474570,-113.428289,"(53.47450084175496, -113.42828681626463)"
Terwillegar South,5642,South Terwillegar,53.442703,-113.587139,"(53.44274754379042, -113.58703862623338)"
Prog. Academy,3200,Glenora,53.550082,-113.550126,"(53.550012879781846, -113.55020824050284)"
Our Lady of the Prairies Playground,4080,Callingwood South,53.499328,-113.623826,"(53.49937849547747, -113.62398176727037)"
Bishop Savaryn School,3280,Lorelei,53.621806,-113.507063,"(53.62176978685844, -113.50723282718164)"
Monsignor Fee Otterson,5454,Rutherford,53.417354,-113.520751,"(53.41725791848013, -113.52087714224022)"
Beacon Heights School,2040,Beacon Heights,53.575614,-113.414721,"(53.57567445844966, -113.4148227763788)"
Cy Becker Park,2611,Cy Becker,53.634085,-113.407956,"(53.63407450479674, -113.40778603117207)"
Robert Brett Park,2080,Belvedere,53.596371,-113.427778,"(53.5964699697946, -113.42774641362794)"
Hazeldean School,6290,Hazeldean,53.503328,-113.477159,"(53.503213852300775, -113.47705862727219)"
Eaux Claires Park Playground,2241,Eaux Claires,53.621680,-113.486204,"(53.62162532622773, -113.48619028861732)"
Belvedere School/Park,2080,Belvedere,53.594153,-113.434997,"(53.594215890630124, -113.43527772239581)"
Westmount Back Alley Park,3440,Westmount,53.552240,-113.547400,"(53.552239151331506, -113.54735033403341)"
Jasper Park Playground,4230,Jasper Park,53.520469,-113.584309,"(53.520599870805064, -113.58460340613308)"
,2350,Homesteader,53.583320,-113.407687,"(53.583320128541814, -113.40781044495311)"
Capilano School,6061,Capilano,53.556018,-113.422124,"(53.55588092349642, -113.42202951060686)"
,6661,Charlesworth,53.426749,-113.399710,"(53.426818480945364, -113.39952930603884)"
Tipton Park,5330,Queen Alexandra,53.516470,-113.509744,"(53.51648212385854, -113.50965717258629)"
Capilano School,6061,Capilano,53.555722,-113.422354,"(53.555627642428604, -113.42237599072098)"
Tipton Park,5330,Queen Alexandra,53.516504,-113.510245,"(53.51651283209478, -113.51019399878908)"
,6441,Maple,53.480700,-113.351122,"(53.48062673167017, -113.35114436744644)"
Tipton Park,5330,Queen Alexandra,53.516517,-113.509866,"(53.516520140053984, -113.50979872346994)"
,2700,Schonsee,53.633109,-113.459467,"(53.63309470939217, -113.45927480401687)"
,6444,Laurel,53.450919,-113.376648,"(53.45092466123502, -113.37655719223119)"
Tipton Park,5330,Queen Alexandra,53.516486,-113.510650,"(53.51642011858172, -113.51057335204831)"
Poplar Park,2050,Belle Rive,53.626536,-113.473578,"(53.62636941097111, -113.47362420533676)"
Horsehill School/Playground,2671,Marquis,53.657200,-113.343207,"(53.657117408264064, -113.34311572091806)"
Horsehill School/Playground,2671,Marquis,53.657202,-113.342964,"(53.657174159536225, -113.34279780702079)"
Avonmore Park,6020,Avonmore,53.510373,-113.448926,"(53.51028081453963, -113.4486986913455)"
Ambleside,5505,Ambleside,53.432881,-113.604043,"(53.43276848954876, -113.60404135358823)"
Montrose Community League,2550,Montrose,53.572521,-113.432931,"(53.57262904821086, -113.43300796290188)"
Bergman Park,2090,Bergman,53.578987,-113.408667,"(53.579108414715385, -113.40868362755214)"
Idylwylde/Metro School,6320,Idylwylde,53.522152,-113.453622,"(53.522295339387554, -113.45349315430374)"
Dovercourt Community League Playground,3170,Dovercourt,53.576167,-113.559421,"(53.576086659739694, -113.55944584918797)"
Blackburne,5590,Blackburne,53.429496,-113.499855,"(53.42944559780341, -113.4996902542307)"
Montrose Community League,2550,Montrose,53.572537,-113.433191,"(53.57243009706506, -113.43315831503418)"
Grandview School,5210,Grandview Heights,53.498916,-113.546497,"(53.498971254348774, -113.54666123298449)"
Laurier Park Playground,3382,River Valley Laurier,53.510060,-113.549518,"(53.51005504260828, -113.54943630373978)"
Zoie Gardner Park,2020,Balwin,53.585448,-113.450596,"(53.58540902399322, -113.45046048654224)"
Scott Robertson,3390,Rosslyn,53.596161,-113.504216,"(53.59630460227576, -113.50405444364355)"
Dovercourt Community League Playground,3170,Dovercourt,53.575746,-113.559786,"(53.57586467654181, -113.55966795997278)"
Kensington Playground,3250,Kensington,53.595903,-113.530718,"(53.595747276924, -113.53110274573561)"
Greenview School,6280,Greenview,53.473497,-113.426732,"(53.47355437790573, -113.42660435973485)"
Wolf Willow Park Playground,4360,Oleskiw,53.499200,-113.604380,"(53.49912700344393, -113.60466800593869)"
Gold Bar Condos,6620,River Valley Gold Bar,53.542648,-113.409779,"(53.54268048388245, -113.4095348875208)"
George Luck School,5100,Bulyea Heights,53.472898,-113.573036,"(53.47290602442703, -113.57279451985863)"
Gold Bar Sch,6270,Gold Bar,53.549512,-113.414335,"(53.54955571118754, -113.41421140547233)"
Tipton Park,5330,Queen Alexandra,53.516455,-113.510137,"(53.51636732810671, -113.51018834993761)"
Youngstown,4060,Britannia Youngstown,53.546108,-113.603955,"(53.54599716538141, -113.60394844712607)"
Bonnie Doon Park,6040,Bonnie Doon,53.527376,-113.470595,"(53.52746649554369, -113.47049782109971)"
Crestwood Community League Playground,3140,Crestwood,53.533157,-113.569657,"(53.53331468129548, -113.56975653455703)"
Caernarvon Park,3060,Caernarvon,53.610791,-113.528156,"(53.610937348999485, -113.52818828332386)"
Northmount,2580,Northmount,53.603334,-113.477589,"(53.60329250539718, -113.4774491760223)"
Brintnell Park Playground,2110,Brintnell,53.619315,-113.407788,"(53.619359616640395, -113.40738144321222)"
Belle Rive Playground,2050,Belle Rive,53.619683,-113.470921,"(53.6197927205576, -113.47067749089382)"
Rideau School,5360,Rideau Park,53.478511,-113.504728,"(53.478470598274775, -113.50462941440006)"
St. Gabriel School,6061,Capilano,53.551001,-113.423784,"(53.55085304086636, -113.42360546752704)"
Caernarvon Tot Lot B,3060,Caernarvon,53.609809,-113.520312,"(53.609882251731094, -113.52042401871364)"
Gallagher Park,6070,Cloverdale,53.535876,-113.472600,"(53.535830806335795, -113.4726483193511)"
Jamieson Place Playground,4220,Jamieson Place,53.490271,-113.651067,"(53.490261733796245, -113.65093620177379)"
Richfield,6600,Richfield,53.469061,-113.452228,"(53.46906212094977, -113.45244099758129)"
Dovercourt,3170,Dovercourt,53.574185,-113.561889,"(53.57419879819477, -113.56197064251597)"
Oxford Park,3320,Oxford,53.617816,-113.547562,"(53.617946060649174, -113.54764460260168)"
Elsinore/Chambery Park,3190,Elsinore,53.640986,-113.505937,"(53.640909930241435, -113.50595754786804)"
